{
  "city": [
    {
      "location": [
        {
          "name": "ING Bank Alba Iulia",
          "address": "Str. Tudor Vladimirescu nr. 50A, Mun. Alba Iulia, Judet Alba",
          "tel_pj": {
            "tel": "+4 0358 406 109"
          },
          "fax_pj": {
            "fax": "+4 0358 406 140"
          },
          "email": "",
          "schedule": "L-V: 09:00 - 16:30",
          "wholesale": {
            "corporate": "1",
            "imm": "1"
          },
          "self_bank": {
            "self_bank": "1"
          },
          "casierie": {
            "casierie": "1"
          },
          "atm": {
            "atm_24": "1",
            "atm_ron": "1",
            "atm_euro": "1",
            "ATMleiret": "1",
            "ATMleiretdep": "1",
            "ATMleieuroretdep": "1",
            "BancaING": "1"
          },
          "map": {
            "latitude": "46.080048",
            "longitude": "23.583523",
            "zoom_level": "15"
          },
          "type": "Branch",
          "id": "5035"
        },
        {
          "name": "ING Office Alba Iulia Cetate",
          "address": "Str. Transilvaniei nr. 16, Mun. Alba Iulia, Judet Alba",
          "tel_pf": {
            "tel": [
              "+4 0358 406 931",
              "+4 0358 406 932"
            ]
          },
          "fax_pf": {
            "fax": "+4 0358 406 930"
          },
          "email": "INGOffice.AlbaIuliaCetate@ingoffice.ro",
          "schedule": "L-V: 09:00 - 18:00, S: 09:00 - 13:00",
          "retail": {
            "pf": "1",
            "pfa": "1",
            "imm": "1"
          },
          "self_bank": {
            "self_bank": "1"
          },
          "atm": {
            "atm_24": "1",
            "atm_ron": "1",
            "atm_euro": "1",
            "ATMleiret": "1",
            "ATMleiretdep": "1",
            "ATMleieuroretdep": "1",
            "BancaING": "1"
          },
          "map": {
            "latitude": "46.070421",
            "longitude": "23.556913",
            "zoom_level": "15"
          },
          "type": "Office",
          "id": "5636"
        },
        {
          "name": "ING ATM Industrial Ipec",
          "address": "Str. Alexandru Ioan Cuza nr. 33, Mun. Alba Iulia, Judet Alba",
          "email": "",
          "schedule": "Bancomat 24H",
          "atm": {
            "atm_24": "1",
            "atm_ron": "1",
            "ATMleiret": "1",
            "ATMleiretdep": "1",
            "BancaING": "1"
          },
          "map": {
            "latitude": "46.10181",
            "longitude": "23.603063",
            "zoom_level": "15"
          },
          "type": "ATM stand-alone",
          "id": "6179"
        },
        {
          "name": "ATM UniCredit Bank Tudor Vladimirescu Alba Iulia",
          "address": "Strada Tudor Vladimirescu, Nr. 3-5, bloc V2C, parter si etaj, Alba Iulia, Judetul Alba",
          "email": "",
          "schedule": "",
          "atm": {
            "ATMleiret": "1"
          },
          "map": {
            "latitude": "46.074869",
            "longitude": "23.579552",
            "zoom_level": "15"
          },
          "type": "ATM non-ING",
          "id": "50004"
        },
        {
          "name": "ATM UniCredit Bank APULUM, Alba",
          "address": "Str Viilor,Nr 128, Alba Iulia, judetul Alba",
          "email": "",
          "schedule": "",
          "atm": {
            "ATMleiret": "1"
          },
          "map": {
            "latitude": "46.053704",
            "longitude": "23.56386",
            "zoom_level": "15"
          },
          "type": "ATM non-ING",
          "id": "50404"
        },
        {
          "name": "ATM UniCredit Bank FARM SIC VOLO Alba",
          "address": "Bulevardul 1 Decembrie 1918, nr. 11, Alba Iulia, judetul Alba",
          "email": "",
          "schedule": "",
          "atm": {
            "ATMleiret": "1"
          },
          "map": {
            "latitude": "46.07035",
            "longitude": "23.564756",
            "zoom_level": "15"
          },
          "type": "ATM non-ING",
          "id": "50416"
        },
        {
          "name": "ATM Raiffeisen Bank Cetate Alba Iulia",
          "address": "Bulevardul Victoriei, Nr. 25, Bl. 3CD, Alba Iulia, Judetul Alba",
          "email": "",
          "schedule": "",
          "atm": {
            "ATMleiret": "1"
          },
          "map": {
            "latitude": "46.078813",
            "longitude": "23.56251",
            "zoom_level": "15"
          },
          "type": "ATM non-ING",
          "id": "50433"
        },
        {
          "name": "ATM Raiffeisen Piata Iuliu Maniu Alba Iulia",
          "address": "Piata Iuliu Maniu, nr. 4, Alba Iulia, judetul Alba",
          "email": "",
          "schedule": "",
          "atm": {
            "ATMleiret": "1"
          },
          "map": {
            "latitude": "46.071333",
            "longitude": "23.582122",
            "zoom_level": "15"
          },
          "type": "ATM non-ING",
          "id": "50598"
        },
        {
          "name": "ATM Raiffeisen Bank Iuliu Maniu Alba Iulia",
          "address": "P-ta Iuliu Maniu nr. 20, Alba Iulia, Judetul Alba",
          "email": "",
          "schedule": "",
          "atm": {
            "ATMleiret": "1"
          },
          "map": {
            "latitude": "46.071342",
            "longitude": "23.581271",
            "zoom_level": "15"
          },
          "type": "ATM non-ING",
          "id": "50604"
        },
        {
          "name": "ATM Raiffeisen Bank Profi Calea Motilor Alba Iulia",
          "address": "Calea Motilor, Magazin Profi, Alba Iulia, Judetul Alba",
          "email": "",
          "schedule": "",
          "atm": {
            "ATMleiret": "1"
          },
          "map": {
            "latitude": "46.079851",
            "longitude": "23.563669",
            "zoom_level": "15"
          },
          "type": "ATM non-ING",
          "id": "50606"
        },
        {
          "name": "ATM Raiffeisen Bank Apullum Alba Iulia",
          "address": "B-dul. Revolutiei 1989, Nr. 77, Bloc A19, ap.2, parter, Alba Iulia, Judetul Alba",
          "email": "",
          "schedule": "",
          "atm": {
            "ATMleiret": "1"
          },
          "map": {
            "latitude": "46.070073",
            "longitude": "23.556885",
            "zoom_level": "15"
          },
          "type": "ATM non-ING",
          "id": "50661"
        },
        {
          "name": "ATM Raiffeisen Bank Sews Alba Iulia",
          "address": "Str. Alexandru Ioan Cuza nr. 28B, Alba Iulia, judetul Alba",
          "email": "",
          "schedule": "",
          "atm": {
            "ATMleiret": "1"
          },
          "map": {
            "latitude": "46.096061",
            "longitude": "23.59868",
            "zoom_level": "15"
          },
          "type": "ATM non-ING",
          "id": "50687"
        },
        {
          "name": "ATM Raiffeisen Bank Victoriei Alba Iulia",
          "address": "Bulevardul Victoriei, nr. 28, Alba Iulia, Judetul Alba",
          "email": "",
          "schedule": "",
          "atm": {
            "ATMleiret": "1"
          },
          "map": {
            "latitude": "46.07885",
            "longitude": "23.563132",
            "zoom_level": "15"
          },
          "type": "ATM non-ING",
          "id": "50950"
        },
        {
          "name": "ATM BCR Tudor Vladimirescu Alba Iulia",
          "address": "Strada Tudor Vladimirescu, Nr. 35A, Alba Iulia, Judetul Alba",
          "email": "",
          "schedule": "",
          "atm": {
            "ATMleiret": "1"
          },
          "map": {
            "latitude": "46.07593",
            "longitude": "23.579252",
            "zoom_level": "15"
          },
          "type": "ATM non-ING",
          "id": "51410"
        },
        {
          "name": "ATM BCR Cetate Alba Iulia",
          "address": "Bulevardul Transilvaniei, Nr. 6, Alba Iulia, Judetul Alba",
          "email": "",
          "schedule": "",
          "atm": {
            "ATMleiret": "1"
          },
          "map": {
            "latitude": "46.070244",
            "longitude": "23.557671",
            "zoom_level": "15"
          },
          "type": "ATM non-ING",
          "id": "51411"
        },
        {
          "name": "ATM BCR Apulum Alba Iulia",
          "address": "Bd. Revolutiei 1989, Bl. MV4, Alba Iulia, Judetul Alba",
          "email": "",
          "schedule": "",
          "atm": {
            "ATMleiret": "1"
          },
          "map": {
            "latitude": "46.078937",
            "longitude": "23.563599",
            "zoom_level": "15"
          },
          "type": "ATM non-ING",
          "id": "51412"
        },
        {
          "name": "ATM BCR DGFP Primaverii Alba Iulia",
          "address": "Str. Primaverii Nr. 10, Alba Iulia, Judetul Alba",
          "email": "",
          "schedule": "",
          "atm": {
            "ATMleiret": "1"
          },
          "map": {
            "latitude": "46.069371",
            "longitude": "23.581977",
            "zoom_level": "15"
          },
          "type": "ATM non-ING",
          "id": "51774"
        },
        {
          "name": "ATM BCR Primaria Alba Iulia",
          "address": "Str. Ardealului Nr. 1-3, Alba Iulia, Judetul Alba",
          "email": "",
          "schedule": "",
          "atm": {
            "ATMleiret": "1"
          },
          "map": {
            "latitude": "46.073066",
            "longitude": "23.578293",
            "zoom_level": "15"
          },
          "type": "ATM non-ING",
          "id": "51775"
        },
        {
          "name": "ATM BCR Albani Republicii Alba Iulia",
          "address": "Str. Republicii Nr. 44, Alba Iulia, Judetul Alba",
          "email": "",
          "schedule": "",
          "atm": {
            "ATMleiret": "1"
          },
          "map": {
            "latitude": "46.080265",
            "longitude": "23.571677",
            "zoom_level": "15"
          },
          "type": "ATM non-ING",
          "id": "51777"
        },
        {
          "name": "ATM BCR Ambient Cuza Alba Iulia",
          "address": "Str. Alexandru Ioan Cuza Nr. 26, Alba Iulia, Judetul Alba",
          "email": "",
          "schedule": "",
          "atm": {
            "ATMleiret": "1"
          },
          "map": {
            "latitude": "46.094914",
            "longitude": "23.598066",
            "zoom_level": "15"
          },
          "type": "ATM non-ING",
          "id": "51779"
        },
        {
          "name": "ATM BCR Kaufland Motilor Alba Iulia",
          "address": "Calea Motilor f.n., Alba Iulia, Judetul Alba",
          "email": "",
          "schedule": "",
          "atm": {
            "ATMleiret": "1"
          },
          "map": {
            "latitude": "46.081272",
            "longitude": "23.564001",
            "zoom_level": "15"
          },
          "type": "ATM non-ING",
          "id": "51786"
        },
        {
          "name": "ATM BCR Dedeman Sincai Alba Iulia",
          "address": "Str. Gheorghe Sincai Nr. 4, Alba Iulia, Judetul Alba",
          "email": "",
          "schedule": "",
          "atm": {
            "ATMleiret": "1"
          },
          "map": {
            "latitude": "46.08187",
            "longitude": "23.573507",
            "zoom_level": "15"
          },
          "type": "ATM non-ING",
          "id": "51788"
        },
        {
          "name": "ATM BCR Universitate Alba Iulia",
          "address": "Str. 1 Decembrie 1918, Nr. 11-13, Alba Iulia, Judetul Alba",
          "email": "",
          "schedule": "",
          "atm": {
            "ATMleiret": "1"
          },
          "map": {
            "latitude": "46.067633",
            "longitude": "23.563947",
            "zoom_level": "15"
          },
          "type": "ATM non-ING",
          "id": "51798"
        },
        {
          "name": "ATM BCR Ampoi Alba Iulia",
          "address": "Str. Frederic Mistral Nr. 1, Alba Iulia, Judetul Alba",
          "email": "",
          "schedule": "",
          "atm": {
            "ATMleiret": "1"
          },
          "map": {
            "latitude": "46.070856",
            "longitude": "23.581515",
            "zoom_level": "15"
          },
          "type": "ATM non-ING",
          "id": "51805"
        },
        {
          "name": "ATM BCR Spital Alba Iulia",
          "address": "Str. Revolutiei Nr. 23, Alba Iulia, Judetul Alba",
          "email": "",
          "schedule": "",
          "atm": {
            "ATMleiret": "1"
          },
          "map": {
            "latitude": "46.072151",
            "longitude": "23.557596",
            "zoom_level": "15"
          },
          "type": "ATM non-ING",
          "id": "52040"
        },
        {
          "name": "ATM Alpha Bank Iuliu Maniu Alba Iulia",
          "address": "Piata Iuliu Maniu, Bl. 280, Sc. F-G, Parter, Alba Iulia, Judetul Alba",
          "email": "",
          "schedule": "",
          "atm": {
            "ATMleiret": "1"
          },
          "map": {
            "latitude": "46.072754",
            "longitude": "23.58107",
            "zoom_level": "15"
          },
          "type": "ATM non-ING",
          "id": "52943"
        },
        {
          "name": "ATM Alpha Bank Transilvaniei Alba Iulia",
          "address": "Bulevardul Transilvaniei nr. 1, Alba Iulia, judetul Alba",
          "email": "",
          "schedule": "",
          "atm": {
            "ATMleiret": "1"
          },
          "map": {
            "latitude": "46.069197",
            "longitude": "23.564325",
            "zoom_level": "15"
          },
          "type": "ATM non-ING",
          "id": "53076"
        },
        {
          "name": "ATM Piraeus Bank 1 Decembrie 1918 Alba Iulia",
          "address": "Blvd. 1 Decembrie 1918, Bloc M3, Alba-Iulia, Judetul Alba",
          "email": "",
          "schedule": "",
          "atm": {
            "ATMleiret": "1"
          },
          "map": {
            "latitude": "46.068517",
            "longitude": "23.564252",
            "zoom_level": "15"
          },
          "type": "ATM non-ING",
          "id": "53221"
        },
        {
          "name": "ATM Piraeus Bank Hotel Parc Alba Iulia",
          "address": "Strada Primaverii, nr. 4, Alba Iulia, Judetul Alba",
          "email": "",
          "schedule": "",
          "atm": {
            "ATMleiret": "1"
          },
          "map": {
            "latitude": "46.06936",
            "longitude": "23.581282",
            "zoom_level": "15"
          },
          "type": "ATM non-ING",
          "id": "53348"
        },
        {
          "name": "ATM Credit Europe Bank Zorilor Alba Iulia",
          "address": "Str. Zorilor nr. 1, Bl. 280, Sc. G, Alba Iulia, jud. Alba",
          "email": "",
          "schedule": "",
          "atm": {
            "ATMleiret": "1"
          },
          "map": {
            "latitude": "44.426302",
            "longitude": "26.103663",
            "zoom_level": "15"
          },
          "type": "ATM non-ING",
          "id": "53471"
        },
        {
          "name": "ATM Bancpost Calea Motilor Alba",
          "address": "Strada Calea Motilor, Nr. 5A, Alba Iulia, Judetul Alba",
          "email": "",
          "schedule": "",
          "atm": {
            "ATMleiret": "1"
          },
          "map": {
            "latitude": "46.072862",
            "longitude": "23.578176",
            "zoom_level": "15"
          },
          "type": "ATM non-ING",
          "id": "53527"
        },
        {
          "name": "ATM Bancpost Aeg Lux Alba Iulia",
          "address": "Strada Revolutiei nr.5, Alba Iulia, judetul Alba",
          "email": "",
          "schedule": "",
          "atm": {
            "ATMleiret": "1"
          },
          "map": {
            "latitude": "46.066338",
            "longitude": "23.555787",
            "zoom_level": "15"
          },
          "type": "ATM non-ING",
          "id": "53658"
        },
        {
          "name": "ATM Bancpost Directia Venituri Primaria Alba Iulia",
          "address": "Strada Ardealului, nr. 1-3, Alba Iulia, judetul Alba",
          "email": "",
          "schedule": "",
          "atm": {
            "ATMleiret": "1"
          },
          "map": {
            "latitude": "46.070964",
            "longitude": "23.580539",
            "zoom_level": "15"
          },
          "type": "ATM non-ING",
          "id": "53763"
        },
        {
          "name": "ATM Bancpost SC Hermes B SRL Alba Iulia",
          "address": "Strada Toporasilor, nr. 20, Alba Iulia, judetul Alba",
          "email": "",
          "schedule": "",
          "atm": {
            "ATMleiret": "1"
          },
          "map": {
            "latitude": "46.075315",
            "longitude": "23.559527",
            "zoom_level": "15"
          },
          "type": "ATM non-ING",
          "id": "53764"
        },
        {
          "name": "ATM Bancpost Statia CFR Teius",
          "address": "Strada Decebal, nr. 148, Teius, judetul Alba",
          "email": "",
          "schedule": "",
          "atm": {
            "ATMleiret": "1"
          },
          "map": {
            "latitude": "46.202713",
            "longitude": "23.690323",
            "zoom_level": "15"
          },
          "type": "ATM non-ING",
          "id": "53765"
        },
        {
          "name": "ATM Bancpost Cocosul de Aur Alba Iulia",
          "address": "Str. Iuliu Maniu, FN, corp B, Aiud, judetul Alba",
          "email": "",
          "schedule": "",
          "atm": {
            "ATMleiret": "1"
          },
          "map": {
            "latitude": "46.310501",
            "longitude": "23.723328",
            "zoom_level": "15"
          },
          "type": "ATM non-ING",
          "id": "54009"
        },
        {
          "name": "ATM Banca Romaneasca Alba Iulia",
          "address": "Pta. Iuliu Maniu Nr.11, Bl. 280, sc. A, parter, Alba Iulia, Judetul Alba",
          "email": "",
          "schedule": "",
          "atm": {
            "ATMleiret": "1"
          },
          "map": {
            "latitude": "46.073074",
            "longitude": "23.580596",
            "zoom_level": "15"
          },
          "type": "ATM non-ING",
          "id": "54026"
        },
        {
          "name": "ATM Banca Transilvania Ampoi Alba Iulia",
          "address": "Bulevardul Republicii, Nr. 125, Bl. 111, Alba Iulia, Judetul Alba",
          "email": "",
          "schedule": "",
          "atm": {
            "ATMleiret": "1"
          },
          "map": {
            "latitude": "46.083301",
            "longitude": "23.5829",
            "zoom_level": "15"
          },
          "type": "ATM non-ING",
          "id": "54161"
        },
        {
          "name": "ATM Banca Transilvania Cetate Alba Iulia",
          "address": "Bulevardul Transilvaniei, Nr.16, Alba Iulia, Judetul Alba",
          "email": "",
          "schedule": "",
          "atm": {
            "ATMleiret": "1"
          },
          "map": {
            "latitude": "46.070728",
            "longitude": "23.557799",
            "zoom_level": "15"
          },
          "type": "ATM non-ING",
          "id": "54162"
        },
        {
          "name": "ATM Banca Transilvania Motilor Alba Iulia",
          "address": "Calea Motilor, Nr. 2 - 4, Alba Iulia, Judetul Alba",
          "email": "",
          "schedule": "",
          "atm": {
            "ATMleiret": "1"
          },
          "map": {
            "latitude": "46.073583",
            "longitude": "23.578852",
            "zoom_level": "15"
          },
          "type": "ATM non-ING",
          "id": "54163"
        },
        {
          "name": "ATM Banca Transilvania Clujului Alba Iulia",
          "address": "Str. Clujului, km. 11, Alba Iulia, judetul Alba",
          "email": "",
          "schedule": "",
          "atm": {
            "ATMleiret": "1"
          },
          "map": {
            "latitude": "46.154218",
            "longitude": "23.643052",
            "zoom_level": "15"
          },
          "type": "ATM non-ING",
          "id": "54341"
        },
        {
          "name": "ATM Banca Transilvania Republicii Alba Iulia",
          "address": "Bulevardul Republicii, nr. 125, Alba Iulia, judetul Alba",
          "email": "",
          "schedule": "",
          "atm": {
            "ATMleiret": "1"
          },
          "map": {
            "latitude": "46.08327",
            "longitude": "23.582975",
            "zoom_level": "15"
          },
          "type": "ATM non-ING",
          "id": "54416"
        },
        {
          "name": "ATM Banca Transilvania Victoriei Alba Iulia",
          "address": "Strada Victoriei, Nr. 95, Alba Iulia, Judetul Alba",
          "email": "",
          "schedule": "",
          "atm": {
            "ATMleiret": "1"
          },
          "map": {
            "latitude": "46.078668",
            "longitude": "23.564152",
            "zoom_level": "15"
          },
          "type": "ATM non-ING",
          "id": "54566"
        },
        {
          "name": "ATM Banca Transilvania Vanatori Alba Iulia",
          "address": "Strada Vanatori, nr. 2 , Alba Iulia, Judetul Alba",
          "email": "",
          "schedule": "",
          "atm": {
            "ATMleiret": "1"
          },
          "map": {
            "latitude": "45.958525",
            "longitude": "23.565305",
            "zoom_level": "15"
          },
          "type": "ATM non-ING",
          "id": "54567"
        },
        {
          "name": "ATM Banca Transilvania Tribunalul Alba Iulia",
          "address": "Piata Iuliu Maniu, nr. 24, Alba Iulia, judetul Alba",
          "email": "",
          "schedule": "",
          "atm": {
            "ATMleiret": "1"
          },
          "map": {
            "latitude": "46.071206",
            "longitude": "23.582932",
            "zoom_level": "15"
          },
          "type": "ATM non-ING",
          "id": "54619"
        },
        {
          "name": "ATM Banca Transilvania Mall Alba",
          "address": "StradaTudor Vladimirescu nr.50,  Alba Iulia, judetul Alba",
          "email": "",
          "schedule": "",
          "atm": {
            "ATMleiret": "1"
          },
          "map": {
            "latitude": "46.079382",
            "longitude": "23.584333",
            "zoom_level": "15"
          },
          "type": "ATM non-ING",
          "id": "54701"
        },
        {
          "name": "ATM Agentia Banca Transilvania Centru Alba Iulia",
          "address": "Str.Nicolae Titulescu nr.1, Bl.280, sc.E, Alba Iulia, jud. Alba",
          "email": "",
          "schedule": "",
          "atm": {
            "ATMleiret": "1"
          },
          "map": {
            "latitude": "46.072535",
            "longitude": "23.580472",
            "zoom_level": "15"
          },
          "type": "ATM non-ING",
          "id": "54976"
        },
        {
          "name": "ATM OTP Bank Iuliu Maniu Alba Iulia",
          "address": "Strada Iuliu Maniu, Nr. 16, Alba Iulia, Judetul Alba",
          "email": "",
          "schedule": "",
          "atm": {
            "ATMleiret": "1"
          },
          "map": {
            "latitude": "46.072524",
            "longitude": "23.581092",
            "zoom_level": "15"
          },
          "type": "ATM non-ING",
          "id": "55005"
        },
        {
          "name": "ATM BRD Cetate Alba Iulia",
          "address": "Bulevardul Transilvaniei, Nr. 16, Alba Iulia, Judetul Alba",
          "email": "",
          "schedule": "",
          "atm": {
            "ATMleiret": "1"
          },
          "map": {
            "latitude": "46.070464",
            "longitude": "23.557071",
            "zoom_level": "15"
          },
          "type": "ATM non-ING",
          "id": "55137"
        },
        {
          "name": "ATM BRD Kaufland Motilor Alba Iulia",
          "address": "Calea Motilor, Alba Iulia, Judetul Alba",
          "email": "",
          "schedule": "",
          "atm": {
            "ATMleiret": "1"
          },
          "map": {
            "latitude": "46.07815",
            "longitude": "23.56499",
            "zoom_level": "15"
          },
          "type": "ATM non-ING",
          "id": "55138"
        },
        {
          "name": "ATM BRD Ardealului Alba Iulia",
          "address": "Strada Ardealului, Nr. 2, Bl. 31B - 31C, Alba Iulia, Judetul Alba",
          "email": "",
          "schedule": "",
          "atm": {
            "ATMleiret": "1"
          },
          "map": {
            "latitude": "46.070792",
            "longitude": "23.580331",
            "zoom_level": "15"
          },
          "type": "ATM non-ING",
          "id": "55139"
        },
        {
          "name": "ATM BRD Apullum Alba Iulia",
          "address": "B-dul 1 Decembrie 1918, bloc M12, Alba Iulia, Judetul Alba",
          "email": "",
          "schedule": "",
          "atm": {
            "ATMleiret": "1"
          },
          "map": {
            "latitude": "46.070584",
            "longitude": "23.56501",
            "zoom_level": "15"
          },
          "type": "ATM non-ING",
          "id": "55484"
        },
        {
          "name": "ATM BRD Gemina Alba Iulia",
          "address": "Bdul Revolutiei 1989 nr. 47B, Alba Iulia, Judetul Alba",
          "email": "",
          "schedule": "",
          "atm": {
            "ATMleiret": "1"
          },
          "map": {
            "latitude": "46.07335",
            "longitude": "23.55861",
            "zoom_level": "15"
          },
          "type": "ATM non-ING",
          "id": "55511"
        },
        {
          "name": "ATM BRD Ampoi Alba Iulia",
          "address": "Strada Victoriei, nr. 127, bl. 115, Alba Iulia, Judetul Alba",
          "email": "",
          "schedule": "",
          "atm": {
            "ATMleiret": "1"
          },
          "map": {
            "latitude": "46.025142",
            "longitude": "23.58075",
            "zoom_level": "15"
          },
          "type": "ATM non-ING",
          "id": "55512"
        },
        {
          "name": "ATM BRD Agentia CFR Motilor Alba Iulia",
          "address": "Strada Motilor, nr. 5, Alba Iulia, Judetul Alba",
          "email": "",
          "schedule": "",
          "atm": {
            "ATMleiret": "1"
          },
          "map": {
            "latitude": "46.082163",
            "longitude": "23.561334",
            "zoom_level": "15"
          },
          "type": "ATM non-ING",
          "id": "55812"
        },
        {
          "name": "ATM MKB Nextebank Consiliul Europei Alba Iulia",
          "address": "Strada Consiliul Europei, Nr. 32, Alba Iulia, Judetul Alba",
          "email": "",
          "schedule": "",
          "atm": {
            "ATMleiret": "1"
          },
          "map": {
            "latitude": "46.070648",
            "longitude": "23.578965",
            "zoom_level": "15"
          },
          "type": "ATM non-ING",
          "id": "56370"
        },
        {
          "name": "ATM MKB Nextebank Transilvaniei Alba Iulia",
          "address": "Bulevardul Transilvaniei, nr. 5B, Alba Iulia, judetul Alba",
          "email": "",
          "schedule": "",
          "atm": {
            "ATMleiret": "1"
          },
          "map": {
            "latitude": "46.069349",
            "longitude": "23.561867",
            "zoom_level": "15"
          },
          "type": "ATM non-ING",
          "id": "56414"
        },
        {
          "name": "ATM CEC Bank Revolutiei 61 Alba Iulia",
          "address": "Bulevardul Revolutiei 1989, Nr. 61, Bl. MV5, Alba Iulia, Judetul Alba",
          "email": "",
          "schedule": "",
          "atm": {
            "ATMleiret": "1"
          },
          "map": {
            "latitude": "44.426302",
            "longitude": "26.103663",
            "zoom_level": "15"
          },
          "type": "ATM non-ING",
          "id": "57032"
        },
        {
          "name": "ATM CEC Bank Jidvei Alba",
          "address": "Strada Perilor nr.17, Jidvei, judetul Alba",
          "email": "",
          "schedule": "",
          "atm": {
            "ATMleiret": "1"
          },
          "map": {
            "latitude": "47.63992",
            "longitude": "23.820863",
            "zoom_level": "15"
          },
          "type": "ATM non-ING",
          "id": "57033"
        },
        {
          "name": "ATM CEC Bank Valea Lunga Alba",
          "address": "Strada Victoriei nr.310, Valea Lunga, judetul Alba",
          "email": "",
          "schedule": "",
          "atm": {
            "ATMleiret": "1"
          },
          "map": {
            "latitude": "45.84771",
            "longitude": "23.361204",
            "zoom_level": "15"
          },
          "type": "ATM non-ING",
          "id": "57034"
        },
        {
          "name": "ATM CEC Bank Unirea Alba",
          "address": "Strada Avram Iancu nr.79, Unirea, judetul Alba",
          "email": "",
          "schedule": "",
          "atm": {
            "ATMleiret": "1"
          },
          "map": {
            "latitude": "45.842779",
            "longitude": "23.378963",
            "zoom_level": "15"
          },
          "type": "ATM non-ING",
          "id": "57035"
        },
        {
          "name": "ATM CEC Bank Vintu de Jos Alba",
          "address": "Strada Lucian Blaga nr.36, Vintu de Jos, judetul Alba",
          "email": "",
          "schedule": "",
          "atm": {
            "ATMleiret": "1"
          },
          "map": {
            "latitude": "45.956841",
            "longitude": "23.571472",
            "zoom_level": "15"
          },
          "type": "ATM non-ING",
          "id": "57036"
        },
        {
          "name": "ATM CEC Bank Ioan Cuza Alba Iulia",
          "address": "Strada Alex. Ioan cuza, nr. 10, Alba Iulia, judetul Alba",
          "email": "",
          "schedule": "",
          "atm": {
            "ATMleiret": "1"
          },
          "map": {
            "latitude": "46.069908",
            "longitude": "23.580391",
            "zoom_level": "15"
          },
          "type": "ATM non-ING",
          "id": "57046"
        },
        {
          "name": "ATM CEC Bank Revolutiei Alba Iulia",
          "address": "Strada Revolutiei, nr. 48, Alba Iulia, judetul Alba",
          "email": "",
          "schedule": "",
          "atm": {
            "ATMleiret": "1"
          },
          "map": {
            "latitude": "46.075592",
            "longitude": "23.55946",
            "zoom_level": "15"
          },
          "type": "ATM non-ING",
          "id": "57047"
        },
        {
          "name": "ATM CEC Bank DGFP Alba Iulia",
          "address": "Strada Primaverii, nr. 10, Alba Iulia, judetul Alba",
          "email": "",
          "schedule": "",
          "atm": {
            "ATMleiret": "1"
          },
          "map": {
            "latitude": "46.06936",
            "longitude": "23.581903",
            "zoom_level": "15"
          },
          "type": "ATM non-ING",
          "id": "57049"
        },
        {
          "name": "ATM CEC Bank Transilvaniei Alba Iulia",
          "address": "Strada Transilvaniei, Nr. 11, Alba Iulia, Judetul Alba",
          "email": "",
          "schedule": "",
          "atm": {
            "ATMleiret": "1"
          },
          "map": {
            "latitude": "46.069762",
            "longitude": "23.560901",
            "zoom_level": "15"
          },
          "type": "ATM non-ING",
          "id": "57203"
        },
        {
          "name": "ATM CEC Bank Tudor Vladimirescu Alba Iulia",
          "address": "Strada Tudor Vladimirescu, Nr. 20, Alba Iulia, Judetul Alba",
          "email": "",
          "schedule": "",
          "atm": {
            "ATMleiret": "1"
          },
          "map": {
            "latitude": "44.426302",
            "longitude": "26.103663",
            "zoom_level": "15"
          },
          "type": "ATM non-ING",
          "id": "57204"
        },
        {
          "name": "ATM CEC Bank Unirii Sugag",
          "address": "Str. Unirii, Nr. 203, Sat Sugag, Judetul Alba",
          "email": "",
          "schedule": "",
          "atm": {
            "ATMleiret": "1"
          },
          "map": {
            "latitude": "45.778149",
            "longitude": "23.621154",
            "zoom_level": "15"
          },
          "type": "ATM non-ING",
          "id": "57292"
        },
        {
          "name": "ATM Garanti Bank Iuliu Maniu Alba Iulia",
          "address": "Bulevardul Iuliu Maniu nr. 8, bl. 280, scara D, parter Alba Iulia, judetul Alba",
          "email": "",
          "schedule": "",
          "atm": {
            "ATMleiret": "1"
          },
          "map": {
            "latitude": "46.07222",
            "longitude": "23.580523",
            "zoom_level": "15"
          },
          "type": "ATM non-ING",
          "id": "57579"
        },
        {
          "name": "ATM Garanti Bank Transilvaniei Alba Iulia",
          "address": "Bulevardul Transilvaniei nr. 11, Alba Iulia, Judetul Alba",
          "email": "",
          "schedule": "",
          "atm": {
            "ATMleiret": "1"
          },
          "map": {
            "latitude": "46.069397",
            "longitude": "23.560708",
            "zoom_level": "15"
          },
          "type": "ATM non-ING",
          "id": "57652"
        },
        {
          "name": "ATM Garanti Bank Vodafone Transilvaniei Alba Iulia",
          "address": "Bulevardul Transilvaniei nr. 3,Alba Iulia, Judetul Alba",
          "email": "",
          "schedule": "",
          "atm": {
            "ATMleiret": "1"
          },
          "map": {
            "latitude": "46.069557",
            "longitude": "23.563504",
            "zoom_level": "15"
          },
          "type": "ATM non-ING",
          "id": "57653"
        },
        {
          "name": "ATM Garanti Bank Revolutiei Alba Iulia",
          "address": "Bd. Revolutiei, Nr 67, Alba Iulia, judetul Alba",
          "email": "",
          "schedule": "",
          "atm": {
            "ATMleiret": "1"
          },
          "map": {
            "latitude": "46.078158",
            "longitude": "23.561195",
            "zoom_level": "15"
          },
          "type": "ATM non-ING",
          "id": "57766"
        },
        {
          "name": "ATM Intesa Sanpaolo Bank Titulescu Alba Iulia",
          "address": "Strada Nicolae Titulescu, Nr. 7, Alba Iulia, judetul Alba",
          "email": "",
          "schedule": "",
          "atm": {
            "ATMleiret": "1"
          },
          "map": {
            "latitude": "46.072412",
            "longitude": "23.579796",
            "zoom_level": "15"
          },
          "type": "ATM non-ING",
          "id": "57823"
        }
      ],
      "_id": "1",
      "_name": "Alba Iulia",
      "_county": "Alba"
    },
    {
      "location": [
        {
          "name": "ING Self'Bank Sebes",
          "address": "Str. Lucian Blaga nr. 92, Mun. Sebes, Judet Alba",
          "email": "",
          "schedule": "Self'Bank 24H",
          "self_bank": {
            "self_bank": "1"
          },
          "atm": {
            "atm_24": "1",
            "atm_ron": "1",
            "atm_euro": "1",
            "ATMleiret": "1",
            "ATMleiretdep": "1",
            "ATMleieuroretdep": "1",
            "BancaING": "1"
          },
          "map": {
            "latitude": "45.95585",
            "longitude": "23.576764",
            "zoom_level": "15"
          },
          "type": "Self'Bank",
          "id": "6106"
        },
        {
          "name": "ATM UniCredit Bank Mihail Kogalniceanu Sebes",
          "address": "Strada Mihail Kogalniceanu, nr. 46, Sebes, Judetul Alba",
          "email": "",
          "schedule": "",
          "atm": {
            "ATMleiret": "1"
          },
          "map": {
            "latitude": "45.965791",
            "longitude": "23.557612",
            "zoom_level": "15"
          },
          "type": "ATM non-ING",
          "id": "50088"
        },
        {
          "name": "ATM UniCredit Bank Primariei Sebes",
          "address": "P-ta Primariei, Nr. 6, Parter, Sebes, Judetul Alba",
          "email": "",
          "schedule": "",
          "atm": {
            "ATMleiret": "1"
          },
          "map": {
            "latitude": "45.957532",
            "longitude": "23.568416",
            "zoom_level": "15"
          },
          "type": "ATM non-ING",
          "id": "50247"
        },
        {
          "name": "ATM UniCredit Bank Primaveri, Sebes",
          "address": "Piata Primaveri,Nr 5, Sebes, judetul Alba",
          "email": "",
          "schedule": "",
          "atm": {
            "ATMleiret": "1"
          },
          "map": {
            "latitude": "45.95749",
            "longitude": "23.568504",
            "zoom_level": "15"
          },
          "type": "ATM non-ING",
          "id": "50405"
        },
        {
          "name": "ATM Raiffeisen Bank Lucian Blaga Sebes",
          "address": "Strada Lucian Blaga, Nr. 47, Sebes, Judetul Alba",
          "email": "",
          "schedule": "",
          "atm": {
            "ATMleiret": "1"
          },
          "map": {
            "latitude": "45.956826",
            "longitude": "23.570804",
            "zoom_level": "15"
          },
          "type": "ATM non-ING",
          "id": "50569"
        },
        {
          "name": "ATM Raiffeisen Bank Lucian Blaga Sebes 2",
          "address": "Strada Lucian Blaga nr. 32, Sebes, Judetul Alba",
          "email": "",
          "schedule": "",
          "atm": {
            "ATMleiret": "1"
          },
          "map": {
            "latitude": "45.957017",
            "longitude": "23.568572",
            "zoom_level": "15"
          },
          "type": "ATM non-ING",
          "id": "50995"
        },
        {
          "name": "ATM Raiffeisen Bank Kogalniceanu Sebes",
          "address": "Strada M. Kogalniceanu, nr. 46, Sebes, Judetul Alba",
          "email": "",
          "schedule": "",
          "atm": {
            "ATMleiret": "1"
          },
          "map": {
            "latitude": "45.965848",
            "longitude": "23.557595",
            "zoom_level": "15"
          },
          "type": "ATM non-ING",
          "id": "50996"
        },
        {
          "name": "ATM BCR Mihai Viteazu Sebes",
          "address": "Strada Mihai Viteazu, Nr. 2, Sebes, Judetul Alba",
          "email": "",
          "schedule": "",
          "atm": {
            "ATMleiret": "1"
          },
          "map": {
            "latitude": "45.95929",
            "longitude": "23.557989",
            "zoom_level": "15"
          },
          "type": "ATM non-ING",
          "id": "51695"
        },
        {
          "name": "ATM BCR Sureanu Sebes",
          "address": "Str. Lucian Blaga Nr. 94, Sebes, Judetul Alba",
          "email": "",
          "schedule": "",
          "atm": {
            "ATMleiret": "1"
          },
          "map": {
            "latitude": "44.426302",
            "longitude": "26.103663",
            "zoom_level": "15"
          },
          "type": "ATM non-ING",
          "id": "52000"
        },
        {
          "name": "ATM BCR Ciserom Sebes",
          "address": "Str. Dorin Pavel Nr. 78, Sebes, Judetul Alba",
          "email": "",
          "schedule": "",
          "atm": {
            "ATMleiret": "1"
          },
          "map": {
            "latitude": "45.951282",
            "longitude": "23.565596",
            "zoom_level": "15"
          },
          "type": "ATM non-ING",
          "id": "52046"
        },
        {
          "name": "ATM BCR Valea Frumoasei Sebes",
          "address": "Str. Valea Frumosei, Sebes, Judetul Alba",
          "email": "",
          "schedule": "",
          "atm": {
            "ATMleiret": "1"
          },
          "map": {
            "latitude": "45.958193",
            "longitude": "23.564258",
            "zoom_level": "15"
          },
          "type": "ATM non-ING",
          "id": "52047"
        },
        {
          "name": "ATM BCR Kaufland Industriilor Sebes",
          "address": "Str. Industriilor Nr. 2, Sebes, Judetul Alba",
          "email": "",
          "schedule": "",
          "atm": {
            "ATMleiret": "1"
          },
          "map": {
            "latitude": "45.96095",
            "longitude": "23.550569",
            "zoom_level": "15"
          },
          "type": "ATM non-ING",
          "id": "52048"
        },
        {
          "name": "ATM BCR Pehart Petresti",
          "address": "Str. 1 Mai, Nr. 1, Sebes, Judetul Alba",
          "email": "",
          "schedule": "",
          "atm": {
            "ATMleiret": "1"
          },
          "map": {
            "latitude": "45.913197",
            "longitude": "23.560429",
            "zoom_level": "15"
          },
          "type": "ATM non-ING",
          "id": "52049"
        },
        {
          "name": "ATM BCR Kogalniceanu Sebes",
          "address": "Str. M. Kogalniceanu, nr. 46, Sebes, Judetul Alba",
          "email": "",
          "schedule": "",
          "atm": {
            "ATMleiret": "1"
          },
          "map": {
            "latitude": "45.966184",
            "longitude": "23.557724",
            "zoom_level": "15"
          },
          "type": "ATM non-ING",
          "id": "52050"
        },
        {
          "name": "ATM Alpha Bank Mihai Viteazu Sebes",
          "address": "Strada Mihai Viteazu, bl. L9, Sebes, Judetul Alba",
          "email": "",
          "schedule": "",
          "atm": {
            "ATMleiret": "1"
          },
          "map": {
            "latitude": "45.956006",
            "longitude": "23.576446",
            "zoom_level": "15"
          },
          "type": "ATM non-ING",
          "id": "53031"
        },
        {
          "name": "ATM Bancpost Lucian Blaga Sebes",
          "address": "Strada Lucian Blaga, Nr. 90, Sebes, Judetul Alba",
          "email": "",
          "schedule": "",
          "atm": {
            "ATMleiret": "1"
          },
          "map": {
            "latitude": "45.956106",
            "longitude": "23.575532",
            "zoom_level": "15"
          },
          "type": "ATM non-ING",
          "id": "53615"
        },
        {
          "name": "ATM Banca Romaneasca Sebes",
          "address": "Strada Lucian Blaga Nr. 77-79, Sebes, Judetul Alba",
          "email": "",
          "schedule": "",
          "atm": {
            "ATMleiret": "1"
          },
          "map": {
            "latitude": "45.959538",
            "longitude": "23.553405",
            "zoom_level": "15"
          },
          "type": "ATM non-ING",
          "id": "54102"
        },
        {
          "name": "ATM Banca Transilvania Belvedere Sebes",
          "address": "Bulevardul Lucian Blaga, Nr. 45 - 47, Sebes, Judetul Alba",
          "email": "",
          "schedule": "",
          "atm": {
            "ATMleiret": "1"
          },
          "map": {
            "latitude": "45.956588",
            "longitude": "23.574322",
            "zoom_level": "15"
          },
          "type": "ATM non-ING",
          "id": "54297"
        },
        {
          "name": "ATM Banca Transilvania Revolutiei Sebes",
          "address": "Strada Revolutiei 1989, nr.47, Sebes, judetul Alba",
          "email": "",
          "schedule": "",
          "atm": {
            "ATMleiret": "1"
          },
          "map": {
            "latitude": "45.955979",
            "longitude": "23.578421",
            "zoom_level": "15"
          },
          "type": "ATM non-ING",
          "id": "54616"
        },
        {
          "name": "ATM Banca Transilvania Valea Frumoasei, Sebes",
          "address": "Strada Valea Frumoasei nr. 3AB, Sebes, judetul Alba",
          "email": "",
          "schedule": "",
          "atm": {
            "ATMleiret": "1"
          },
          "map": {
            "latitude": "45.958059",
            "longitude": "23.564465",
            "zoom_level": "15"
          },
          "type": "ATM non-ING",
          "id": "54834"
        },
        {
          "name": "ATM BRD Valea Frumoasei Sebes",
          "address": "Strada Valea Frumoasei, Bl. 2, Sebes, Judetul Alba",
          "email": "",
          "schedule": "",
          "atm": {
            "ATMleiret": "1"
          },
          "map": {
            "latitude": "45.95823",
            "longitude": "23.563819",
            "zoom_level": "15"
          },
          "type": "ATM non-ING",
          "id": "55363"
        },
        {
          "name": "ATM BRD Franz Binder Sebes",
          "address": "Strada Lucian Blaga, bl. L9, parter, Spatiul Comercial nr. 21, Sebes, Judetul Alba",
          "email": "",
          "schedule": "",
          "atm": {
            "ATMleiret": "1"
          },
          "map": {
            "latitude": "45.959538",
            "longitude": "23.553405",
            "zoom_level": "15"
          },
          "type": "ATM non-ING",
          "id": "55515"
        },
        {
          "name": "ATM CEC Bank Lucian Blaga Sebes",
          "address": "Strada Lucian Blaga, Nr. 8, Sebes, Judetul Alba",
          "email": "",
          "schedule": "",
          "atm": {
            "ATMleiret": "1"
          },
          "map": {
            "latitude": "44.426302",
            "longitude": "26.103663",
            "zoom_level": "15"
          },
          "type": "ATM non-ING",
          "id": "56862"
        },
        {
          "name": "ATM CEC Bank Multiplast Sebes",
          "address": "Str. Lucian Blaga, nr. 88, Sebes, judetul Alba",
          "email": "",
          "schedule": "",
          "atm": {
            "ATMleiret": "1"
          },
          "map": {
            "latitude": "45.955871",
            "longitude": "23.575991",
            "zoom_level": "15"
          },
          "type": "ATM non-ING",
          "id": "57516"
        },
        {
          "name": "ATM Garanti Bank Lucian Blaga Sebes",
          "address": "Strada Lucian Blaga, Nr. 58, Sebes, Judetul Alba",
          "email": "",
          "schedule": "",
          "atm": {
            "ATMleiret": "1"
          },
          "map": {
            "latitude": "45.956735",
            "longitude": "23.571066",
            "zoom_level": "15"
          },
          "type": "ATM non-ING",
          "id": "57654"
        },
        {
          "name": "ATM Intesa Sanpaolo Bank Sebes",
          "address": "Strada Aviator Olteanu, Nr. 2, Sebes, judetul Alba",
          "email": "",
          "schedule": "",
          "atm": {
            "ATMleiret": "1"
          },
          "map": {
            "latitude": "45.9581",
            "longitude": "23.565701",
            "zoom_level": "15"
          },
          "type": "ATM non-ING",
          "id": "57824"
        }
      ],
      "_id": "2",
      "_name": "Sebes",
      "_county": "Alba"
    },
    {
      "_id": "3",
      "_name": "Oiejdea",
      "_county": "Alba"
    },
    {
      "location": [
        {
          "name": "ATM UniCredit Bank Alexandru Sahia Cugir",
          "address": "Strada Alexandru Sahia, nr. 19, Cugir, Judetul Alba",
          "email": "",
          "schedule": "",
          "atm": {
            "ATMleiret": "1"
          },
          "map": {
            "latitude": "45.842456",
            "longitude": "23.360485",
            "zoom_level": "15"
          },
          "type": "ATM non-ING",
          "id": "50394"
        },
        {
          "name": "ATM Raiffeisen Bank Sahia Cugir",
          "address": "Strada Al. Sahia nr. 19, Bloc 19, scara E si F, parter, Cugir, Judetul Alba",
          "email": "",
          "schedule": "",
          "atm": {
            "ATMleiret": "1"
          },
          "map": {
            "latitude": "45.841413",
            "longitude": "23.360952",
            "zoom_level": "15"
          },
          "type": "ATM non-ING",
          "id": "50663"
        },
        {
          "name": "ATM Raiffeisen Bank Fabrica de Arme Cugir",
          "address": "Strada 21 decembrie 1989, nr. 1A, Cugir, Judetul Alba",
          "email": "",
          "schedule": "",
          "atm": {
            "ATMleiret": "1"
          },
          "map": {
            "latitude": "45.828506",
            "longitude": "23.373275",
            "zoom_level": "15"
          },
          "type": "ATM non-ING",
          "id": "50993"
        },
        {
          "name": "ATM BCR Alexandru Sahia Cugir",
          "address": "Strada Alexandru Sahia, Nr. 23, Bl. S6, Cugir, Judetul Alba",
          "email": "",
          "schedule": "",
          "atm": {
            "ATMleiret": "1"
          },
          "map": {
            "latitude": "45.845193",
            "longitude": "23.359096",
            "zoom_level": "15"
          },
          "type": "ATM non-ING",
          "id": "51570"
        },
        {
          "name": "ATM BCR Star Transmision Cugir",
          "address": "Str. Victoriei Nr. 10, Cugir, Judetul Alba",
          "email": "",
          "schedule": "",
          "atm": {
            "ATMleiret": "1"
          },
          "map": {
            "latitude": "45.847872",
            "longitude": "23.361287",
            "zoom_level": "15"
          },
          "type": "ATM non-ING",
          "id": "52042"
        },
        {
          "name": "ATM BCR Magazin CPC Cugir",
          "address": "Str. 21 Decembrie 1989, Nr. 152, Cugir, Judetul Alba",
          "email": "",
          "schedule": "",
          "atm": {
            "ATMleiret": "1"
          },
          "map": {
            "latitude": "45.829132",
            "longitude": "23.372024",
            "zoom_level": "15"
          },
          "type": "ATM non-ING",
          "id": "52043"
        },
        {
          "name": "ATM BCR Uzina Cugir",
          "address": "Str. 21 Decembrie 1989, Nr. 1, Cugir, Judetul Alba",
          "email": "",
          "schedule": "",
          "atm": {
            "ATMleiret": "1"
          },
          "map": {
            "latitude": "45.839218",
            "longitude": "23.368408",
            "zoom_level": "15"
          },
          "type": "ATM non-ING",
          "id": "52044"
        },
        {
          "name": "ATM Bancpost Alexandru Sahia Cugir",
          "address": "Strada Alexandru Sahia, Nr. 23 Bl. 56, Cugir, Judetul Alba",
          "email": "",
          "schedule": "",
          "atm": {
            "ATMleiret": "1"
          },
          "map": {
            "latitude": "45.84499",
            "longitude": "23.359118",
            "zoom_level": "15"
          },
          "type": "ATM non-ING",
          "id": "53580"
        },
        {
          "name": "ATM Banca Transilvania Sahia Cugir",
          "address": "Strada Al. Sahia  nr. 22 A, bl. 5 A",
          "email": "",
          "schedule": "",
          "atm": {
            "ATMleiret": "1"
          },
          "map": {
            "latitude": "45.842535",
            "longitude": "23.360593",
            "zoom_level": "15"
          },
          "type": "ATM non-ING",
          "id": "54473"
        },
        {
          "name": "ATM BRD Alexandru Sahia Cugir",
          "address": "Strada Alexandru Sahia nr. 28, bloc 8b, scara B, Cugir, Judetul Alba",
          "email": "",
          "schedule": "",
          "atm": {
            "ATMleiret": "1"
          },
          "map": {
            "latitude": "45.843653",
            "longitude": "23.360056",
            "zoom_level": "15"
          },
          "type": "ATM non-ING",
          "id": "55514"
        },
        {
          "name": "ATM CEC Bank Alexandru Sahia Cugir",
          "address": "Strada Alexandru Sahia, Nr. 15, Cugir, Judetul Alba",
          "email": "",
          "schedule": "",
          "atm": {
            "ATMleiret": "1"
          },
          "map": {
            "latitude": "45.841275",
            "longitude": "23.360959",
            "zoom_level": "15"
          },
          "type": "ATM non-ING",
          "id": "56660"
        },
        {
          "name": "ATM CEC Bank 21 Decembrie Cugir",
          "address": "Str. 21 Decembrie nr.21A, Cugir, judetul Alba",
          "email": "",
          "schedule": "",
          "atm": {
            "ATMleiret": "1"
          },
          "map": {
            "latitude": "45.834545",
            "longitude": "23.370972",
            "zoom_level": "15"
          },
          "type": "ATM non-ING",
          "id": "57512"
        }
      ],
      "_id": "4",
      "_name": "Cugir",
      "_county": "Alba"
    },
    {
      "location": [
        {
          "name": "ATM Raiffeisen Bank Iuliu Maniu Aiud",
          "address": "Strada Iuliu Maniu, Nr. 2, Aiud, Judetul Alba",
          "email": "",
          "schedule": "",
          "atm": {
            "ATMleiret": "1"
          },
          "map": {
            "latitude": "46.310756",
            "longitude": "23.72058",
            "zoom_level": "15"
          },
          "type": "ATM non-ING",
          "id": "50432"
        },
        {
          "name": "ATM Raiffeisen Bank Mihai Viteazu Aiud",
          "address": "Strada Mihai Viteazu, bloc 2 A-H, parter, Aiud, Judetul Alba",
          "email": "",
          "schedule": "",
          "atm": {
            "ATMleiret": "1"
          },
          "map": {
            "latitude": "46.309514",
            "longitude": "23.730287",
            "zoom_level": "15"
          },
          "type": "ATM non-ING",
          "id": "50952"
        },
        {
          "name": "ATM Raiffeisen Bank Penitenciarul Aiud",
          "address": "Str. Morii, nr. 5, Aiud, judetul Alba",
          "email": "",
          "schedule": "",
          "atm": {
            "ATMleiret": "1"
          },
          "map": {
            "latitude": "46.313472",
            "longitude": "23.724547",
            "zoom_level": "15"
          },
          "type": "ATM non-ING",
          "id": "50994"
        },
        {
          "name": "ATM BCR Profi Aiud",
          "address": "Strada Transilvaniei, Nr. 26, Aiud, Judetul Alba",
          "email": "",
          "schedule": "",
          "atm": {
            "ATMleiret": "1"
          },
          "map": {
            "latitude": "46.311474",
            "longitude": "23.721119",
            "zoom_level": "15"
          },
          "type": "ATM non-ING",
          "id": "51409"
        },
        {
          "name": "ATM BCR Mihai Viteazu Aiud",
          "address": "Str. Mihai Viteazu Nr. 57, Aiud, Judetul Alba",
          "email": "",
          "schedule": "",
          "atm": {
            "ATMleiret": "1"
          },
          "map": {
            "latitude": "46.309681",
            "longitude": "23.730793",
            "zoom_level": "15"
          },
          "type": "ATM non-ING",
          "id": "52037"
        },
        {
          "name": "ATM BCR Sergent Hategan Aiud",
          "address": "Str. Sergent Hategan, Bl. I2, Aiud, Judetul Alba",
          "email": "",
          "schedule": "",
          "atm": {
            "ATMleiret": "1"
          },
          "map": {
            "latitude": "46.307417",
            "longitude": "23.71745",
            "zoom_level": "15"
          },
          "type": "ATM non-ING",
          "id": "52038"
        },
        {
          "name": "ATM BCR Prebet Aiud",
          "address": "Str. Arenei Nr. 10, Aiud, Judetul Alba",
          "email": "",
          "schedule": "",
          "atm": {
            "ATMleiret": "1"
          },
          "map": {
            "latitude": "46.315515",
            "longitude": "23.736823",
            "zoom_level": "15"
          },
          "type": "ATM non-ING",
          "id": "52039"
        },
        {
          "name": "ATM BCR Transilvania Aiud",
          "address": "Str. Transilvaniei nr. 13, Aiud, Judetul Alba",
          "email": "",
          "schedule": "",
          "atm": {
            "ATMleiret": "1"
          },
          "map": {
            "latitude": "44.426302",
            "longitude": "26.103663",
            "zoom_level": "15"
          },
          "type": "ATM non-ING",
          "id": "52925"
        },
        {
          "name": "ATM BCR Spitalul Municipal Aiud",
          "address": "Str. Spitalului Nr. 2, Aiud, Judetul Alba",
          "email": "",
          "schedule": "",
          "atm": {
            "ATMleiret": "1"
          },
          "map": {
            "latitude": "46.307757",
            "longitude": "23.723121",
            "zoom_level": "15"
          },
          "type": "ATM non-ING",
          "id": "52926"
        },
        {
          "name": "ATM Bancpost Aiud Alba",
          "address": "Strada Transilvania, Nr. 31, Aiud, Judetul Alba",
          "email": "",
          "schedule": "",
          "atm": {
            "ATMleiret": "1"
          },
          "map": {
            "latitude": "46.311738",
            "longitude": "23.720691",
            "zoom_level": "15"
          },
          "type": "ATM non-ING",
          "id": "53526"
        },
        {
          "name": "ATM Banca Transilvania Aiud Alba",
          "address": "Strada Transilvaniei, Nr. 5, Aiud, Judetul Alba",
          "email": "",
          "schedule": "",
          "atm": {
            "ATMleiret": "1"
          },
          "map": {
            "latitude": "46.310757",
            "longitude": "23.719317",
            "zoom_level": "15"
          },
          "type": "ATM non-ING",
          "id": "54160"
        },
        {
          "name": "ATM BRD Transilvaniei Aiud",
          "address": "Bulevardul Transilvaniei, Nr. 31, Bl. A9, Parter, Aiud, Judetul Alba",
          "email": "",
          "schedule": "",
          "atm": {
            "ATMleiret": "1"
          },
          "map": {
            "latitude": "46.310398",
            "longitude": "23.718668",
            "zoom_level": "15"
          },
          "type": "ATM non-ING",
          "id": "55136"
        },
        {
          "name": "ATM CEC Bank Axente Sever Aiud",
          "address": "Strada Axente Sever, bl.28, Aiud, judetul Alba",
          "email": "",
          "schedule": "",
          "atm": {
            "ATMleiret": "1"
          },
          "map": {
            "latitude": "46.309355",
            "longitude": "23.731427",
            "zoom_level": "15"
          },
          "type": "ATM non-ING",
          "id": "56732"
        },
        {
          "name": "ATM CEC Bank Cuza Voda Aiud",
          "address": "Strada Cuza Voda, Nr. 24, Aiud, Judetul Alba",
          "email": "",
          "schedule": "",
          "atm": {
            "ATMleiret": "1"
          },
          "map": {
            "latitude": "44.426302",
            "longitude": "26.103663",
            "zoom_level": "15"
          },
          "type": "ATM non-ING",
          "id": "57511"
        },
        {
          "name": "ATM Garanti Bank Transilvaniei Aiud",
          "address": "Strada Transilvaniei, bl. A14, parter, Aiud, Judetul Alba",
          "email": "",
          "schedule": "",
          "atm": {
            "ATMleiret": "1"
          },
          "map": {
            "latitude": "46.310522",
            "longitude": "23.719398",
            "zoom_level": "15"
          },
          "type": "ATM non-ING",
          "id": "57655"
        }
      ],
      "_id": "5",
      "_name": "Aiud",
      "_county": "Alba"
    },
    {
      "location": [
        {
          "name": "ATM Raiffeisen Bank Calea Turzii Campeni",
          "address": "Strada Calea Turzii nr. 1, subapartamentul III.1, parter, Campeni, Judetul Alba",
          "email": "",
          "schedule": "",
          "atm": {
            "ATMleiret": "1"
          },
          "map": {
            "latitude": "46.362667",
            "longitude": "23.059282",
            "zoom_level": "15"
          },
          "type": "ATM non-ING",
          "id": "50662"
        },
        {
          "name": "ATM BCR Piata Avram Iancu Campeni",
          "address": "Piata Avram Iancu, Nr. 13, Campeni, Judetul Alba",
          "email": "",
          "schedule": "",
          "atm": {
            "ATMleiret": "1"
          },
          "map": {
            "latitude": "46.363049",
            "longitude": "23.050074",
            "zoom_level": "15"
          },
          "type": "ATM non-ING",
          "id": "51534"
        },
        {
          "name": "ATM BCR Revolutiei 1848 Campeni",
          "address": "Str. Revolutiei 1848, Campeni, Judetul Alba",
          "email": "",
          "schedule": "",
          "atm": {
            "ATMleiret": "1"
          },
          "map": {
            "latitude": "46.362885",
            "longitude": "23.052884",
            "zoom_level": "15"
          },
          "type": "ATM non-ING",
          "id": "51785"
        },
        {
          "name": "ATM BRD Mestesugarilor Campeni",
          "address": "Strada Mestesugarilor, nr. 2, Campeni, Judetul Alba",
          "email": "",
          "schedule": "",
          "atm": {
            "ATMleiret": "1"
          },
          "map": {
            "latitude": "46.363539",
            "longitude": "23.049715",
            "zoom_level": "15"
          },
          "type": "ATM non-ING",
          "id": "55513"
        },
        {
          "name": "ATM CEC Bank Campeni Alba",
          "address": "Strada Motilor, Nr. 1, Campeni, Judetul Alba",
          "email": "",
          "schedule": "",
          "atm": {
            "ATMleiret": "1"
          },
          "map": {
            "latitude": "46.363072",
            "longitude": "23.049746",
            "zoom_level": "15"
          },
          "type": "ATM non-ING",
          "id": "56656"
        }
      ],
      "_id": "6",
      "_name": "Campeni",
      "_county": "Alba"
    },
    {
      "location": [
        {
          "name": "ATM Raiffeisen Bank 1 Mai Ocna Mures",
          "address": "Strada 1 Mai nr. 3, Ocna Mures, Judetul Alba",
          "email": "",
          "schedule": "",
          "atm": {
            "ATMleiret": "1"
          },
          "map": {
            "latitude": "46.383841",
            "longitude": "23.861651",
            "zoom_level": "15"
          },
          "type": "ATM non-ING",
          "id": "50664"
        },
        {
          "name": "ATM BCR 1 Mai Ocna Mures",
          "address": "Strada 1 Mai, Nr. 3, Ocna Mures, Judetul Alba",
          "email": "",
          "schedule": "",
          "atm": {
            "ATMleiret": "1"
          },
          "map": {
            "latitude": "46.383603",
            "longitude": "23.862276",
            "zoom_level": "15"
          },
          "type": "ATM non-ING",
          "id": "51642"
        },
        {
          "name": "ATM BCR Nicolae Iorga Ocna Mures",
          "address": "Str. Nicolae Iorga, Nr. 21, Bl. 35, Ocna Mures, Judetul Alba",
          "email": "",
          "schedule": "",
          "atm": {
            "ATMleiret": "1"
          },
          "map": {
            "latitude": "46.38299",
            "longitude": "23.860189",
            "zoom_level": "15"
          },
          "type": "ATM non-ING",
          "id": "52045"
        },
        {
          "name": "ATM BRD Nicolae Iorga Ocna Mures",
          "address": "Strada N. Iorga, Nr. 4, Bl. 40, Ocna Mures, Judetul Alba",
          "email": "",
          "schedule": "",
          "atm": {
            "ATMleiret": "1"
          },
          "map": {
            "latitude": "46.381981",
            "longitude": "23.859226",
            "zoom_level": "15"
          },
          "type": "ATM non-ING",
          "id": "55314"
        },
        {
          "name": "ATM CEC Bank Nicolae Iorga Ocna Mures",
          "address": "Strada Nicolae Iorga, nr. 38, Ocna Mures, judetul Alba",
          "email": "",
          "schedule": "",
          "atm": {
            "ATMleiret": "1"
          },
          "map": {
            "latitude": "46.383149",
            "longitude": "23.860289",
            "zoom_level": "15"
          },
          "type": "ATM non-ING",
          "id": "56729"
        }
      ],
      "_id": "7",
      "_name": "Ocna Mures",
      "_county": "Alba"
    },
    {
      "location": [
        {
          "name": "ATM Raiffeisen Bank Republicii Abrud",
          "address": "Strada Republicii, nr. 12, Bl. A3, Abrud, Judetul Alba",
          "email": "",
          "schedule": "",
          "atm": {
            "ATMleiret": "1"
          },
          "map": {
            "latitude": "46.26823",
            "longitude": "23.077127",
            "zoom_level": "15"
          },
          "type": "ATM non-ING",
          "id": "50951"
        },
        {
          "name": "ATM BCR Cuza Voda Abrud",
          "address": "Str. Cuza Voda, Nr. 10, Abrud, Judetul Alba",
          "email": "",
          "schedule": "",
          "atm": {
            "ATMleiret": "1"
          },
          "map": {
            "latitude": "46.274891",
            "longitude": "23.05378",
            "zoom_level": "15"
          },
          "type": "ATM non-ING",
          "id": "51406"
        },
        {
          "name": "ATM BCR Republicii Abrud",
          "address": "Str. Republicii Nr. 12, Bl. R4, Abrud, Judetul Alba",
          "email": "",
          "schedule": "",
          "atm": {
            "ATMleiret": "1"
          },
          "map": {
            "latitude": "46.267733",
            "longitude": "23.0784",
            "zoom_level": "15"
          },
          "type": "ATM non-ING",
          "id": "51773"
        },
        {
          "name": "ATM Banca Transilvania Eroilor Abrud",
          "address": "P-ta Eroilor nr.7",
          "email": "",
          "schedule": "",
          "atm": {
            "ATMleiret": "1"
          },
          "map": {
            "latitude": "46.274671",
            "longitude": "23.063917",
            "zoom_level": "15"
          },
          "type": "ATM non-ING",
          "id": "54958"
        },
        {
          "name": "ATM CEC Bank Abrud Alba",
          "address": "Strada Lt. Anca V, nr.21, Abrud, judetul Alba",
          "email": "",
          "schedule": "",
          "atm": {
            "ATMleiret": "1"
          },
          "map": {
            "latitude": "46.275747",
            "longitude": "23.060744",
            "zoom_level": "15"
          },
          "type": "ATM non-ING",
          "id": "56865"
        }
      ],
      "_id": "8",
      "_name": "Abrud",
      "_county": "Alba"
    },
    {
      "location": [
        {
          "name": "ATM Raiffeisen Bank Timotei Cipariu Blaj",
          "address": "Strada Timotei Cipariu nr. 6, Blaj, Judetul Alba",
          "email": "",
          "schedule": "",
          "atm": {
            "ATMleiret": "1"
          },
          "map": {
            "latitude": "46.175626",
            "longitude": "23.922254",
            "zoom_level": "15"
          },
          "type": "ATM non-ING",
          "id": "50992"
        },
        {
          "name": "ATM BCR Republicii Blaj",
          "address": "Bulevardul Republicii, Nr. 8, Blaj, Judetul Alba",
          "email": "",
          "schedule": "",
          "atm": {
            "ATMleiret": "1"
          },
          "map": {
            "latitude": "46.176557",
            "longitude": "23.923332",
            "zoom_level": "15"
          },
          "type": "ATM non-ING",
          "id": "51443"
        },
        {
          "name": "ATM BCR Stratus Mob Baritiu Blaj",
          "address": "Str. Gheorghe Baritiu Nr. 36, Blaj, Judetul Alba",
          "email": "",
          "schedule": "",
          "atm": {
            "ATMleiret": "1"
          },
          "map": {
            "latitude": "46.165096",
            "longitude": "23.946624",
            "zoom_level": "15"
          },
          "type": "ATM non-ING",
          "id": "52041"
        },
        {
          "name": "ATM Bancpost Eroilor Blaj",
          "address": "Strada Eroilor, Nr. 31, Blaj, Judetul Alba",
          "email": "",
          "schedule": "",
          "atm": {
            "ATMleiret": "1"
          },
          "map": {
            "latitude": "46.177067",
            "longitude": "23.915441",
            "zoom_level": "15"
          },
          "type": "ATM non-ING",
          "id": "53534"
        },
        {
          "name": "ATM Banca Transilvania Eroilor Blaj",
          "address": "Strada Eroilor, Bl. 16A, Blaj, Judetul Alba",
          "email": "",
          "schedule": "",
          "atm": {
            "ATMleiret": "1"
          },
          "map": {
            "latitude": "46.176772",
            "longitude": "23.914501",
            "zoom_level": "15"
          },
          "type": "ATM non-ING",
          "id": "54185"
        },
        {
          "name": "ATM BRD 1 Decembrie Blaj",
          "address": "Strada 1 Decembrie nr. 67, Blaj, Judetul Alba",
          "email": "",
          "schedule": "",
          "atm": {
            "ATMleiret": "1"
          },
          "map": {
            "latitude": "46.132084",
            "longitude": "24.099873",
            "zoom_level": "15"
          },
          "type": "ATM non-ING",
          "id": "55813"
        },
        {
          "name": "ATM BRD Republicii Blaj",
          "address": "B-dul Republicii, nr. 5, Blaj, Judetul Alba",
          "email": "",
          "schedule": "",
          "atm": {
            "ATMleiret": "1"
          },
          "map": {
            "latitude": "46.176356",
            "longitude": "23.922334",
            "zoom_level": "15"
          },
          "type": "ATM non-ING",
          "id": "56161"
        },
        {
          "name": "ATM CEC Bank Eroilor Blaj",
          "address": "Bulevardul Eroilor, nr.1, Blaj, judetul Alba",
          "email": "",
          "schedule": "",
          "atm": {
            "ATMleiret": "1"
          },
          "map": {
            "latitude": "46.176844",
            "longitude": "23.916232",
            "zoom_level": "15"
          },
          "type": "ATM non-ING",
          "id": "56864"
        }
      ],
      "_id": "9",
      "_name": "Blaj",
      "_county": "Alba"
    },
    {
      "location": [
        {
          "name": "ATM Raiffeisen Bank Clujului Teius",
          "address": "Strada Clujului, Bl. A1, Parter, Teius, Judetul Alba",
          "email": "",
          "schedule": "",
          "atm": {
            "ATMleiret": "1"
          },
          "map": {
            "latitude": "46.206404",
            "longitude": "23.673569",
            "zoom_level": "15"
          },
          "type": "ATM non-ING",
          "id": "50997"
        },
        {
          "name": "ATM BCR Clujului Teius",
          "address": "Strada Clujului, Nr. 89, Teius, Judetul Alba",
          "email": "",
          "schedule": "",
          "atm": {
            "ATMleiret": "1"
          },
          "map": {
            "latitude": "46.206988",
            "longitude": "23.673802",
            "zoom_level": "15"
          },
          "type": "ATM non-ING",
          "id": "51741"
        },
        {
          "name": "ATM Banca Transilvania Teius Alba",
          "address": "Strada Clujului bl.C1,parter, Teius, Alba",
          "email": "",
          "schedule": "",
          "atm": {
            "ATMleiret": "1"
          },
          "map": {
            "latitude": "46.207488",
            "longitude": "23.674274",
            "zoom_level": "15"
          },
          "type": "ATM non-ING",
          "id": "54615"
        },
        {
          "name": "ATM BRD Clujului Teius",
          "address": "Strada Clujului, nr. 78P, Teius, Judetul Alba",
          "email": "",
          "schedule": "",
          "atm": {
            "ATMleiret": "1"
          },
          "map": {
            "latitude": "46.206999",
            "longitude": "23.674138",
            "zoom_level": "15"
          },
          "type": "ATM non-ING",
          "id": "55516"
        },
        {
          "name": "ATM CEC Bank Decebal Teius",
          "address": "Strada Decebal, Nr. 23, Teius, Judetul Alba",
          "email": "",
          "schedule": "",
          "atm": {
            "ATMleiret": "1"
          },
          "map": {
            "latitude": "44.426302",
            "longitude": "26.103663",
            "zoom_level": "15"
          },
          "type": "ATM non-ING",
          "id": "57510"
        }
      ],
      "_id": "10",
      "_name": "Teius",
      "_county": "Alba"
    },
    {
      "location": [
        {
          "name": "ATM BCR Baia de Aries",
          "address": "Piata Baii, Bl. D8-D9, Baia de Aries, Judetul Alba",
          "email": "",
          "schedule": "",
          "atm": {
            "ATMleiret": "1"
          },
          "map": {
            "latitude": "46.380094",
            "longitude": "23.280298",
            "zoom_level": "15"
          },
          "type": "ATM non-ING",
          "id": "51425"
        },
        {
          "name": "ATM CEC Bank 22 Decembrie Baia de Aries",
          "address": "Strada 22 Decembrie, Bl. D4, Baia de Aries, Judetul Alba",
          "email": "",
          "schedule": "",
          "atm": {
            "ATMleiret": "1"
          },
          "map": {
            "latitude": "44.426302",
            "longitude": "26.103663",
            "zoom_level": "15"
          },
          "type": "ATM non-ING",
          "id": "57518"
        }
      ],
      "_id": "11",
      "_name": "Baia de Aries",
      "_county": "Alba"
    },
    {
      "location": [
        {
          "name": "ATM BCR Tudor Vladimirescu Zlatna",
          "address": "Strada Tudor Vladimirescu, Nr. 13, Zlatna, Judetul Alba",
          "email": "",
          "schedule": "",
          "atm": {
            "ATMleiret": "1"
          },
          "map": {
            "latitude": "46.110022",
            "longitude": "23.226236",
            "zoom_level": "15"
          },
          "type": "ATM non-ING",
          "id": "51770"
        },
        {
          "name": "ATM CEC Bank Motilor Zlatna",
          "address": "Strada Motilor, Nr. 15, Zlatna, Judetul Alba",
          "email": "",
          "schedule": "",
          "atm": {
            "ATMleiret": "1"
          },
          "map": {
            "latitude": "46.111348",
            "longitude": "23.222181",
            "zoom_level": "15"
          },
          "type": "ATM non-ING",
          "id": "56658"
        }
      ],
      "_id": "12",
      "_name": "Zlatna",
      "_county": "Alba"
    },
    {
      "location": [
        {
          "name": "ING Bank Arad",
          "address": "Str. Lucian Blaga nr. 2, Mun. Arad, Judet Arad",
          "tel_pf": {
            "tel": [
              "+4 0357 406 951",
              "+4 0357 406 952"
            ]
          },
          "tel_pj": {
            "tel": "+4 0257 306 066"
          },
          "fax_pf": {
            "fax": "+4 0357 406 950"
          },
          "fax_pj": {
            "fax": "+4 0257 338 544"
          },
          "email": "INGOffice.AradCentru@ingoffice.ro",
          "schedule": "ING Office: L-V: 09:00 - 17:30, S: 09:00 - 13:00 / ING Bank: L-V: 09:00 - 16:30",
          "retail": {
            "pf": "1",
            "pfa": "1"
          },
          "wholesale": {
            "corporate": "1",
            "imm": "1"
          },
          "self_bank": {
            "self_bank": "1"
          },
          "casierie": {
            "casierie": "1"
          },
          "atm": {
            "atm_24": "1",
            "atm_ron": "1",
            "atm_euro": "1",
            "ATMleiret": "1",
            "ATMleiretdep": "1",
            "ATMleieuroretdep": "1",
            "BancaING": "1"
          },
          "map": {
            "latitude": "46.172199",
            "longitude": "21.315201",
            "zoom_level": "15"
          },
          "type": "Office and Branch",
          "id": "5623"
        },
        {
          "name": "ING Office Arad Aurel Vlaicu",
          "address": "Calea Aurel Vlaicu nr. 58-61, bl. I-10, Mun. Arad, Judet Arad",
          "tel_pf": {
            "tel": [
              "+4 0357 406 921",
              "+4 0357 406 922"
            ]
          },
          "fax_pf": {
            "fax": "+4 0357 406 920"
          },
          "email": "INGOffice.AradAurelVlaicu@ingoffice.ro",
          "schedule": "L-V: 09:00 - 18:00, S: 09:00 - 13:00",
          "retail": {
            "pf": "1",
            "pfa": "1",
            "imm": "1"
          },
          "self_bank": {
            "self_bank": "1"
          },
          "atm": {
            "atm_24": "1",
            "atm_ron": "1",
            "atm_euro": "1",
            "ATMleiret": "1",
            "ATMleiretdep": "1",
            "ATMleieuroretdep": "1",
            "BancaING": "1"
          },
          "map": {
            "latitude": "46.192074",
            "longitude": "21.30719",
            "zoom_level": "15"
          },
          "type": "Office",
          "id": "5527"
        },
        {
          "name": "ING Office Arad Micalaca",
          "address": "Str. Loc. Maj. Duma, bl. 338, sc. A, ap. 21, parter, Mun. Arad, Judet Arad",
          "tel_pf": {
            "tel": [
              "+4 0357 406 941",
              "+4 0357 406 942"
            ]
          },
          "fax_pf": {
            "fax": "+4 0357 406 940"
          },
          "email": "INGOffice.AradMicalaca@INGOffice.ro",
          "schedule": "L-V: 09:30 - 18:00, S: 09:00 - 13:00",
          "retail": {
            "pf": "1",
            "pfa": "1",
            "imm": "1"
          },
          "self_bank": {
            "self_bank": "1"
          },
          "atm": {
            "atm_24": "1",
            "atm_ron": "1",
            "atm_euro": "1",
            "ATMleiret": "1",
            "ATMleiretdep": "1",
            "ATMleieuroretdep": "1",
            "BancaING": "1"
          },
          "map": {
            "latitude": "46.172182",
            "longitude": "21.34691",
            "zoom_level": "15"
          },
          "type": "Office",
          "id": "5556"
        },
        {
          "name": "ING Office Arad Revolutiei",
          "address": "Str. Revolutiei nr. 26-28, parter, ap. 17A, Mun. Arad, Judet Arad",
          "tel_pf": {
            "tel": [
              "+4 0357 406 931",
              "+4 0357 406 932"
            ]
          },
          "fax_pf": {
            "fax": "+4 0357 406 930"
          },
          "email": "INGOffice.AradRevolutiei@INGOffice.ro",
          "schedule": "L-V: 09:00 - 18:00, S: 09:00 - 13:00",
          "retail": {
            "pf": "1",
            "pfa": "1",
            "imm": "1"
          },
          "self_bank": {
            "self_bank": "1"
          },
          "atm": {
            "atm_24": "1",
            "atm_ron": "1",
            "atm_euro": "1",
            "ATMleiret": "1",
            "ATMleiretdep": "1",
            "ATMleieuroretdep": "1",
            "BancaING": "1"
          },
          "map": {
            "latitude": "46.181806",
            "longitude": "21.321949",
            "zoom_level": "15"
          },
          "type": "Office",
          "id": "5570"
        },
        {
          "name": "ING Self'Bank Arad",
          "address": "Calea Aurel Vlaicu nr. 41-43, Mun. Arad, Judet Arad",
          "email": "",
          "schedule": "Self'Bank 24H",
          "self_bank": {
            "self_bank": "1"
          },
          "atm": {
            "atm_24": "1",
            "atm_ron": "1",
            "ATMleiret": "1",
            "ATMleiretdep": "1",
            "BancaING": "1"
          },
          "map": {
            "latitude": "46.189724",
            "longitude": "21.319874",
            "zoom_level": "15"
          },
          "type": "Self'Bank",
          "id": "6080"
        },
        {
          "name": "ING ATM Kaufland I Banu Maracine",
          "address": "Str. Banu Marcine nr. 6, Mun. Arad, Judet Arad",
          "email": "",
          "schedule": "L-S: 07:30 - 22:00, D: 08:00 - 20:00",
          "atm": {
            "atm_ron": "1",
            "ATMleiret": "1",
            "ATMleiretdep": "1",
            "BancaING": "1"
          },
          "map": {
            "latitude": "46.18583",
            "longitude": "21.313368",
            "zoom_level": "15"
          },
          "type": "ATM stand-alone",
          "id": "6261"
        },
        {
          "name": "ING ATM Kaufland Arad II",
          "address": "Calea Aurel Vlaicu nr. 139-151, Mun. Arad, Judet Arad",
          "email": "",
          "schedule": "Bancomat 24H",
          "atm": {
            "atm_24": "1",
            "atm_ron": "1",
            "ATMleiret": "1",
            "BancaING": "1"
          },
          "map": {
            "latitude": "46.196036",
            "longitude": "21.298451",
            "zoom_level": "15"
          },
          "type": "ATM stand-alone",
          "id": "6187"
        },
        {
          "name": "ING ATM Kaufland Micalaca",
          "address": "Calea Radnei nr. 130, Mun. Arad, Judet Arad",
          "email": "",
          "schedule": "L-S: 07:30 - 22:00, D: 08:00 - 20:00",
          "atm": {
            "atm_ron": "1",
            "ATMleiret": "1",
            "BancaING": "1"
          },
          "map": {
            "latitude": "46.179973",
            "longitude": "21.344801",
            "zoom_level": "15"
          },
          "type": "ATM stand-alone",
          "id": "6251"
        },
        {
          "name": "ATM UniCredit Bank IULIUS,Arad",
          "address": "Str. Abrud,Bl 127,Arad, judetul Arad",
          "email": "",
          "schedule": "",
          "atm": {
            "ATMleiret": "1"
          },
          "map": {
            "latitude": "46.177234",
            "longitude": "21.346689",
            "zoom_level": "15"
          },
          "type": "ATM non-ING",
          "id": "50002"
        },
        {
          "name": "ATM UniCredit Bank Revolutiei Arad",
          "address": "Strada Mircea Stanescu, Nr. 2, Arad, Judetul Arad",
          "email": "",
          "schedule": "",
          "atm": {
            "ATMleiret": "1"
          },
          "map": {
            "latitude": "46.18045",
            "longitude": "21.320923",
            "zoom_level": "15"
          },
          "type": "ATM non-ING",
          "id": "50005"
        },
        {
          "name": "ATM UniCredit Bank Piata Avram Iancu Arad",
          "address": "Piata Avram Iancu, Nr. 13, Corp A, Arad, Judetul Arad",
          "email": "",
          "schedule": "",
          "atm": {
            "ATMleiret": "1"
          },
          "map": {
            "latitude": "46.169493",
            "longitude": "21.315773",
            "zoom_level": "15"
          },
          "type": "ATM non-ING",
          "id": "50042"
        },
        {
          "name": "ATM UniCredit Bank Metro Zimandului Arad",
          "address": "Calea Zimandului, Nr. 43C, Arad, Judetul Arad",
          "email": "",
          "schedule": "",
          "atm": {
            "ATMleiret": "1"
          },
          "map": {
            "latitude": "46.211502",
            "longitude": "21.343542",
            "zoom_level": "15"
          },
          "type": "ATM non-ING",
          "id": "50099"
        },
        {
          "name": "ATM UniCredit Bank Obi Radnei Arad",
          "address": "Calea Radnei, nr. 298, Arad, Judetul Arad",
          "email": "",
          "schedule": "",
          "atm": {
            "ATMleiret": "1"
          },
          "map": {
            "latitude": "46.174165",
            "longitude": "21.317886",
            "zoom_level": "15"
          },
          "type": "ATM non-ING",
          "id": "50110"
        },
        {
          "name": "ATM UniCredit Bank Socrom Aurel Vlaicu Arad",
          "address": "Calea Aurel Vlaicu, nr. 241, bloc 6A, Arad, Judetul Arad",
          "email": "",
          "schedule": "",
          "atm": {
            "ATMleiret": "1"
          },
          "map": {
            "latitude": "46.198577",
            "longitude": "21.295871",
            "zoom_level": "15"
          },
          "type": "ATM non-ING",
          "id": "50113"
        },
        {
          "name": "ATM UniCredit Bank Avram Iancu Arad",
          "address": "Piata Avram Iancu, Nr. 13, Corp A, Arad, Judetul Arad",
          "email": "",
          "schedule": "",
          "atm": {
            "ATMleiret": "1"
          },
          "map": {
            "latitude": "46.169493",
            "longitude": "21.315773",
            "zoom_level": "15"
          },
          "type": "ATM non-ING",
          "id": "50289"
        },
        {
          "name": "ATM UniCredit Bank Farmacia Crai Nou Arad",
          "address": "Aleea Borsec, Bl 511, Arad, judetul Arad",
          "email": "",
          "schedule": "",
          "atm": {
            "ATMleiret": "1"
          },
          "map": {
            "latitude": "46.171123",
            "longitude": "21.353895",
            "zoom_level": "15"
          },
          "type": "ATM non-ING",
          "id": "50313"
        },
        {
          "name": "ATM UniCredit Bank Aurel Vlaicu, Arad",
          "address": "Calea Aurel Vlaicu, Bl. U5,Arad, judetul Arad",
          "email": "",
          "schedule": "",
          "atm": {
            "ATMleiret": "1"
          },
          "map": {
            "latitude": "46.19157",
            "longitude": "21.307656",
            "zoom_level": "15"
          },
          "type": "ATM non-ING",
          "id": "50410"
        },
        {
          "name": "ATM UniCredit Bank ADIA,Arad",
          "address": "STEFAN CEL MARE, BL 5, Arad, judetul Arad",
          "email": "",
          "schedule": "",
          "atm": {
            "ATMleiret": "1"
          },
          "map": {
            "latitude": "46.144679",
            "longitude": "21.333869",
            "zoom_level": "15"
          },
          "type": "ATM non-ING",
          "id": "50411"
        },
        {
          "name": "ATM Raiffeisen Bank Teatru Arad",
          "address": "Strada Unirii, Nr. 1, Ap. 30, Arad, Judetul Arad",
          "email": "",
          "schedule": "",
          "atm": {
            "ATMleiret": "1"
          },
          "map": {
            "latitude": "46.171487",
            "longitude": "21.316496",
            "zoom_level": "15"
          },
          "type": "ATM non-ING",
          "id": "50434"
        },
        {
          "name": "ATM Raiffeisen Bank Andrei Saguna Arad",
          "address": "Strada Andrei Saguna, Nr. 1-3, Arad, Judetul Arad",
          "email": "",
          "schedule": "",
          "atm": {
            "ATMleiret": "1"
          },
          "map": {
            "latitude": "46.180804",
            "longitude": "21.309171",
            "zoom_level": "15"
          },
          "type": "ATM non-ING",
          "id": "50435"
        },
        {
          "name": "ATM Raiffeisen Bank Aradul Nou Arad",
          "address": "Aradul Nou, Bloc 5, scara A, ap. 17/b, parter, Arad, Judetul Arad",
          "email": "",
          "schedule": "",
          "atm": {
            "ATMleiret": "1"
          },
          "map": {
            "latitude": "46.145011",
            "longitude": "21.334153",
            "zoom_level": "15"
          },
          "type": "ATM non-ING",
          "id": "50665"
        },
        {
          "name": "ATM Raiffeisen Bank Aurel Vlaicu Arad",
          "address": "Strada Aurel Vlaicu nr. 114, bl. Z 20-a, ap. 25, parter, Arad, Judetul Arad",
          "email": "",
          "schedule": "",
          "atm": {
            "ATMleiret": "1"
          },
          "map": {
            "latitude": "46.186352",
            "longitude": "21.32504",
            "zoom_level": "15"
          },
          "type": "ATM non-ING",
          "id": "50666"
        },
        {
          "name": "ATM Raiffeisen Bank Galeria Arad",
          "address": "Calea Aurel Vlaicu, nr. 225- 235, Arad, jud. Arad",
          "email": "",
          "schedule": "",
          "atm": {
            "ATMleiret": "1"
          },
          "map": {
            "latitude": "46.200448",
            "longitude": "21.287999",
            "zoom_level": "15"
          },
          "type": "ATM non-ING",
          "id": "50668"
        },
        {
          "name": "ATM Raiffeisen Bank Ioan Slavici Arad",
          "address": "Aleea Borsec nr.2, bl. 511, sc. C, ap. 17, parter, Arad, Judetul Arad",
          "email": "",
          "schedule": "",
          "atm": {
            "ATMleiret": "1"
          },
          "map": {
            "latitude": "46.171317",
            "longitude": "21.354057",
            "zoom_level": "15"
          },
          "type": "ATM non-ING",
          "id": "50670"
        },
        {
          "name": "ATM Raiffeisen Bank Pecica Arad",
          "address": "Strada 3, nr. 1, apartament 1D, Pecica, Judetul Arad",
          "email": "",
          "schedule": "",
          "atm": {
            "ATMleiret": "1"
          },
          "map": {
            "latitude": "46.158859",
            "longitude": "21.06313",
            "zoom_level": "15"
          },
          "type": "ATM non-ING",
          "id": "50671"
        },
        {
          "name": "ATM Raiffeisen Bank Podgoria Arad",
          "address": "B-dul Revolutiei nr. 8, parter, Arad, Judetul Arad",
          "email": "",
          "schedule": "",
          "atm": {
            "ATMleiret": "1"
          },
          "map": {
            "latitude": "46.182612",
            "longitude": "21.32288",
            "zoom_level": "15"
          },
          "type": "ATM non-ING",
          "id": "50672"
        },
        {
          "name": "ATM Raiffeisen Bank Selgros Calea Radnei Arad",
          "address": "Calea Radnei nr. 294, Arad, Judetul Arad",
          "email": "",
          "schedule": "",
          "atm": {
            "ATMleiret": "1"
          },
          "map": {
            "latitude": "46.177784",
            "longitude": "21.35476",
            "zoom_level": "15"
          },
          "type": "ATM non-ING",
          "id": "50673"
        },
        {
          "name": "ATM Raiffeisen Bank Revolutiei Arad",
          "address": "Bulevardul Revolutiei nr. 39-41, Arad, Judetul Arad",
          "email": "",
          "schedule": "",
          "atm": {
            "ATMleiret": "1"
          },
          "map": {
            "latitude": "46.179843",
            "longitude": "21.321545",
            "zoom_level": "15"
          },
          "type": "ATM non-ING",
          "id": "50998"
        },
        {
          "name": "ATM Raiffeisen Bank Altex Aurel Vlaicu Arad",
          "address": "Calea Aurel Vlaicu, bl. 6/A, Arad, Judetul Arad",
          "email": "",
          "schedule": "",
          "atm": {
            "ATMleiret": "1"
          },
          "map": {
            "latitude": "46.199486",
            "longitude": "21.294443",
            "zoom_level": "15"
          },
          "type": "ATM non-ING",
          "id": "50999"
        },
        {
          "name": "ATM Raiffeisen Bank\tParc Industrial West Arad",
          "address": "Parc Industrial West nr. 1, Arad, Judetul Arad",
          "email": "",
          "schedule": "",
          "atm": {
            "ATMleiret": "1"
          },
          "map": {
            "latitude": "46.204844",
            "longitude": "21.248004",
            "zoom_level": "15"
          },
          "type": "ATM non-ING",
          "id": "51000"
        },
        {
          "name": "ATM Raiffeisen Bank Zona Industriala Vest Arad",
          "address": "Strada III, Nr. 4-4A, Zona Industriala Vest",
          "email": "",
          "schedule": "",
          "atm": {
            "ATMleiret": "1"
          },
          "map": {
            "latitude": "46.210368",
            "longitude": "21.261737",
            "zoom_level": "15"
          },
          "type": "ATM non-ING",
          "id": "51001"
        },
        {
          "name": "ATM Raiffeisen Bank Galleria Mall Aurel Vlaicu Arad",
          "address": "Calea Aurel Vlaicu 225-235, Arad, Judetul Arad",
          "email": "",
          "schedule": "",
          "atm": {
            "ATMleiret": "1"
          },
          "map": {
            "latitude": "46.200456",
            "longitude": "21.288341",
            "zoom_level": "15"
          },
          "type": "ATM non-ING",
          "id": "51002"
        },
        {
          "name": "ATM BCR Ioan Slavici Arad",
          "address": "Piata UTA, Bl. U4, Arad, Judetul Arad",
          "email": "",
          "schedule": "",
          "atm": {
            "ATMleiret": "1"
          },
          "map": {
            "latitude": "46.191673",
            "longitude": "21.30894",
            "zoom_level": "15"
          },
          "type": "ATM non-ING",
          "id": "51417"
        },
        {
          "name": "ATM BCR Micalaca Arad",
          "address": "Aleea Borsec, Nr. 2, Bl. 511, Sc. D, Ap. 17, Parter, Arad, Judetul Arad",
          "email": "",
          "schedule": "",
          "atm": {
            "ATMleiret": "1"
          },
          "map": {
            "latitude": "46.170534",
            "longitude": "21.35333",
            "zoom_level": "15"
          },
          "type": "ATM non-ING",
          "id": "51418"
        },
        {
          "name": "ATM BCR Fortuna Arad",
          "address": "Calea Aurel Vlaicu, Nr. 177, Bl. 21, Arad, Judetul Arad",
          "email": "",
          "schedule": "",
          "atm": {
            "ATMleiret": "1"
          },
          "map": {
            "latitude": "46.199091",
            "longitude": "21.29438",
            "zoom_level": "15"
          },
          "type": "ATM non-ING",
          "id": "51419"
        },
        {
          "name": "ATM BCR Avram Iancu Arad",
          "address": "Bulevardul Revolutiei, Nr. 72, Arad, Judetul Arad",
          "email": "",
          "schedule": "",
          "atm": {
            "ATMleiret": "1"
          },
          "map": {
            "latitude": "46.176312",
            "longitude": "21.318177",
            "zoom_level": "15"
          },
          "type": "ATM non-ING",
          "id": "51420"
        },
        {
          "name": "ATM BCR Andrei Saguna Arad",
          "address": "Str. Andrei Saguna Nr. 2-6, Arad, judetul Arad",
          "email": "",
          "schedule": "",
          "atm": {
            "ATMleiret": "1"
          },
          "map": {
            "latitude": "46.18122",
            "longitude": "21.309234",
            "zoom_level": "15"
          },
          "type": "ATM non-ING",
          "id": "51806"
        },
        {
          "name": "ATM BCR Ziridava Arad",
          "address": "Bulevardul Revolutiei nr. 35, Sc A, ap.67, parter, Arad, judetul Arad",
          "email": "",
          "schedule": "",
          "atm": {
            "ATMleiret": "1"
          },
          "map": {
            "latitude": "46.180851",
            "longitude": "21.322426",
            "zoom_level": "15"
          },
          "type": "ATM non-ING",
          "id": "51807"
        },
        {
          "name": "ATM BCR Galleria Arad",
          "address": "Calea Aurel Vlaicu Nr. 225-235, Arad, judetul Arad",
          "email": "",
          "schedule": "",
          "atm": {
            "ATMleiret": "1"
          },
          "map": {
            "latitude": "46.201116",
            "longitude": "21.288222",
            "zoom_level": "15"
          },
          "type": "ATM non-ING",
          "id": "51808"
        },
        {
          "name": "ATM BCR Aradul Nou Arad",
          "address": "Strada Stefan cel Mare, bl. 4, sc. B, ap. 17, parter, Arad, Judetul Arad",
          "email": "",
          "schedule": "",
          "atm": {
            "ATMleiret": "1"
          },
          "map": {
            "latitude": "46.144429",
            "longitude": "21.333492",
            "zoom_level": "15"
          },
          "type": "ATM non-ING",
          "id": "51998"
        },
        {
          "name": "ATM BCR Pecica Arad",
          "address": "Strada 2, nr. 143, parter, Pecica, Judetul Arad",
          "email": "",
          "schedule": "",
          "atm": {
            "ATMleiret": "1"
          },
          "map": {
            "latitude": "46.16095",
            "longitude": "21.065213",
            "zoom_level": "15"
          },
          "type": "ATM non-ING",
          "id": "51999"
        },
        {
          "name": "ATM BCR Omniasig General Dragalina Arad",
          "address": "Bulevardul General Dragalina Nr. 9, Arad, Judetul Arad",
          "email": "",
          "schedule": "",
          "atm": {
            "ATMleiret": "1"
          },
          "map": {
            "latitude": "46.168121",
            "longitude": "21.320859",
            "zoom_level": "15"
          },
          "type": "ATM non-ING",
          "id": "52018"
        },
        {
          "name": "ATM BCR Billa Titulescu Arad",
          "address": "Strada N. TITULESCU, Arad, Judetul Arad",
          "email": "",
          "schedule": "",
          "atm": {
            "ATMleiret": "1"
          },
          "map": {
            "latitude": "46.172473",
            "longitude": "21.346257",
            "zoom_level": "15"
          },
          "type": "ATM non-ING",
          "id": "52036"
        },
        {
          "name": "ATM BCR Profi Voinicilor Arad",
          "address": "Str. Voinicilor, Arad, Judetul Arad",
          "email": "",
          "schedule": "",
          "atm": {
            "ATMleiret": "1"
          },
          "map": {
            "latitude": "46.17179",
            "longitude": "21.354238",
            "zoom_level": "15"
          },
          "type": "ATM non-ING",
          "id": "52051"
        },
        {
          "name": "ATM BCR Enel Iuliu Maniu Arad",
          "address": "Calea Iuliu Maniu Nr. 65-71, Arad, Judetul Arad",
          "email": "",
          "schedule": "",
          "atm": {
            "ATMleiret": "1"
          },
          "map": {
            "latitude": "46.181379",
            "longitude": "21.332826",
            "zoom_level": "15"
          },
          "type": "ATM non-ING",
          "id": "52052"
        },
        {
          "name": "ATM BCR Dedeman Aurel Vlaicu Arad",
          "address": "Str. Aurel Vlaicu Nr. 258, Arad, Judetul Arad",
          "email": "",
          "schedule": "",
          "atm": {
            "ATMleiret": "1"
          },
          "map": {
            "latitude": "46.201517",
            "longitude": "21.256111",
            "zoom_level": "15"
          },
          "type": "ATM non-ING",
          "id": "52054"
        },
        {
          "name": "ATM BCR Atrium Center Arad",
          "address": "Bd. Aurel Vlaicu Nr. 10-12, Arad, Judetul Arad",
          "email": "",
          "schedule": "",
          "atm": {
            "ATMleiret": "1"
          },
          "map": {
            "latitude": "46.190221",
            "longitude": "21.320066",
            "zoom_level": "15"
          },
          "type": "ATM non-ING",
          "id": "52055"
        },